[
  {
    "id": "p3",
    "name": "Red Rice (Hand-Pounded)",
    "info": "Traditional hand-pounded red rice, rich in fiber and iron. No polishing.",
    "holderName": "F44521890 - Murugan K",
    "holderPhone": "9845612378",
    "location": "Madurai",
    "image": "https://images.unsplash.com/photo-1586201375761-83865001e31c?w=400",
    "pricePer100g": "180",
    "views": 22,
    "buys": 8,
    "minQuantity": 500,
    "unit": "g",
    "stock": null,
    "coords": {
      "lat": 9.9252,
      "lng": 78.1198
    }
  },
  {
    "id": "p4",
    "name": "Cold-Pressed Groundnut Oil",
    "info": "100% pure cold-pressed groundnut oil. No chemicals, no preservatives.",
    "holderName": "F78123456 - Lakshmi R",
    "holderPhone": "9867543210",
    "location": "Salem",
    "image": "https://images.unsplash.com/photo-1474979266404-7eaacbcd87c5?w=400",
    "pricePer100g": "350",
    "views": 43,
    "buys": 19,
    "minQuantity": 500,
    "unit": "g",
    "stock": 0,
    "coords": {
      "lat": 11.6643,
      "lng": 78.146
    }
  },
  {
    "id": "p5",
    "name": "Organic Jaggery",
    "info": "Pure sugarcane jaggery, no chemical processing. Rich in minerals.",
    "holderName": "F55098712 - Senthil V",
    "holderPhone": "9812345670",
    "location": "Erode",
    "image": "https://images.unsplash.com/photo-1604431696980-07e518647610?w=400",
    "pricePer100g": "120",
    "views": 18,
    "buys": 7,
    "minQuantity": 250,
    "unit": "g",
    "coords": {
      "lat": 11.341,
      "lng": 77.7172
    }
  },
  {
    "id": "p6",
    "name": "Black Pepper (Whole)",
    "info": "Organically grown Malabar black pepper. Strong aroma and flavor.",
    "holderName": "F93798012 - Lenin S",
    "holderPhone": "9876543210",
    "location": "Coimbatore",
    "image": "https://images.unsplash.com/photo-1599909533601-ec5e9cd9ac57?w=400",
    "pricePer100g": "550",
    "views": 30,
    "buys": 12,
    "minQuantity": 100,
    "unit": "g",
    "coords": {
      "lat": 11.0168,
      "lng": 76.9558
    }
  },
  {
    "id": "p7",
    "name": "Farm Fresh Honey",
    "info": "Raw unprocessed multiflora honey from forest bee farms.",
    "holderName": "F33201456 - Kavitha M",
    "holderPhone": "9834567120",
    "location": "Trichy",
    "image": "https://images.unsplash.com/photo-1587049352846-4a222e784d38?w=400",
    "pricePer100g": "250",
    "views": 49,
    "buys": 36,
    "minQuantity": 250,
    "unit": "g",
    "stock": null,
    "coords": {
      "lat": 10.7905,
      "lng": 78.7047
    }
  },
  {
    "id": "p8",
    "name": "Moringa Powder",
    "info": "Shade-dried drumstick leaf powder. Super food rich in vitamins.",
    "holderName": "F12004321 - Tamil L",
    "holderPhone": "9840012345",
    "location": "Chennai",
    "image": "https://images.unsplash.com/photo-1617093727343-374698b1b08d?w=400",
    "pricePer100g": "300",
    "views": 15,
    "buys": 6,
    "minQuantity": 100,
    "unit": "g",
    "coords": {
      "lat": 13.0827,
      "lng": 80.2707
    }
  },
  {
    "id": "p9",
    "name": "Basmati Rice (Premium)",
    "info": "Aged basmati rice, extra-long grain. Perfect for biryani.",
    "holderName": "F66789012 - Rajan P",
    "holderPhone": "9856781234",
    "location": "Thanjavur",
    "image": "https://images.unsplash.com/photo-1536304929831-ee1ca9d44906?w=400",
    "pricePer100g": "280",
    "views": 36,
    "buys": 27,
    "minQuantity": 1,
    "unit": "kg",
    "coords": {
      "lat": 10.787,
      "lng": 79.1378
    }
  },
  {
    "id": "p10",
    "name": "Coconut Oil (Virgin)",
    "info": "Cold-pressed virgin coconut oil from fresh coconut milk.",
    "holderName": "F55098712 - Senthil V",
    "holderPhone": "9812345670",
    "location": "Erode",
    "image": "https://images.unsplash.com/photo-1526947425960-945c6e72858f?w=400",
    "pricePer100g": "320",
    "views": 26,
    "buys": 10,
    "minQuantity": 500,
    "unit": "g",
    "coords": {
      "lat": 11.341,
      "lng": 77.7172
    }
  }
]